[
    {"date": "15-08-2019", "name": "Hotel Verde", "address": "Cape Town Airport, 15 Michigan St, Airport Industria, Cape Town, 7490, South Africa", "days": 2, "lat": "-33.97415", "lng": "18.589582917 ", "activities": "Accommodation", "type": "Hotel"},
    {"date": "17-08-2019", "name": "Chapman's Peak", "address": "Cape Town, 7979, South Africa", "days": 1, "lat": "-34.1007996", "lng": "18.358971615", "activities": "Sight Seeing", "type": "Mountains"},
    {"date": "17-08-2019", "name": "Quayside Hotel", "address": "Simonstown", "days": 1, "lat":  "-34.1928743", "lng": "18.430560817", "activities": "Accommodation", "type": "Hotel"},
    {"date": "17-08-2019", "name": "Cape of Good Hope", "address": "Cape Point Rd, Cape Town, 8001, South Africa", "days": 1, "lat": "-34.3567013", "lng": "18.470203916", "activities": "Sight Seeing", "type": "Coastline"},
    {"date": "18-08-2019", "name": "Stellenbosch", "address": "South Africa", "days": 1, "lat": "-33.9466716", "lng": "18.77454512", "activities": "Sight Seeing", "type": "Cities"},
    {"date": "18-08-2019", "name": "Marianne Wine Estate", "address": "Valley Road - Off R44, Stellenbosch, 7600, South Africa", "days": 1, "lat": "-33.8298546", "lng": "18.877630117", "activities": "Wine Tasting", "type": "Wine"},
    {"date": "18-08-2019", "name": "Knysna Elephant Park", "address": "Just off the N2 between Knysna and, Plettenberg Bay, 6600, South Africa", "days": 2, "lat": "-34.0385536", "lng": "23.26503617", "activities": "Safari", "type": "Elephants"},
    {"date": "20-08-2019", "name": "Plettenburg Bay", "address": "South Africa", "days": 1, "lat": "-34.0610681", "lng": "23.29123112", "activities": "Whale Watching", "type": "Sea Life"},
    {"date": "20-08-2019", "name": "Milkwood Manor Guest House", "address": "Plettenburg Bay", "days": 2, "lat":" -34.050294", "lng": "23.373779317", "activities": "Accommodation", "type": "Guest House"},
    {"date": "21-08-2019", "name": "Nature's Valley", "address": "Natures Valley, South Africa", "days": 1, "lat": "-33.9782911", "lng": "23.547230515", "activities": "Sight Seeing", "type": "Coastline"},
    {"date": "21-08-2019", "name": "Port Elizabeth", "address": "South Africa", "days": 1, "lat": "-33.8012478", "lng": "25.249983910", "activities": "Sight Seeing", "type": "Cities"},
    {"date": "21-08-2019", "name": "Spekboom Tented Camp", "address": "Spekboom Tented Camp, South Africa", "days": 4, "lat": "-33.5125013", "lng": "25.751274517", "activities": "Accommodation", "type": "Rest Camp"},
    {"date": "23-08-2019", "name": "A little Guesthouse", "address": "15 Van Blerk Ave, Groenvlei, Bloemfontein, 9301, South Africa", "days": 1, "lat": "-29.0777376", "lng": "26.170434717", "activities": "Accommodation", "type": "Guest House"},
    {"date": "24-08-2019", "name": "Farm Yard Inn", "address": "28 Prinsberg Ave, Hoeveldpark, Emalahleni, 1034, South Africa", "days": 1, "lat": "-25.857153", "lng": "29.254093317", "activities": "Accommodation", "type": "Hotel"},
    {"date": "25-08-2019", "name": "Lower Sabie Rest Camp", "address": "Kruger National Park, Gomomdwane Road, Komatipoort, Skukuza, 1350, South Africa", "days": 3, "lat": "-25.11986", "lng": "31.913190317", "activities": "Accommodation", "type": "Rest Camp"},
    {"date": "26-08-2019", "name": "Kruger National Park", "address":  "South Africa", "days": 3, "lat": "-23.9883848", "lng": "31.552551517", "activities": "Safari", "type": "The Big 5"},
    {"date": "28-08-2019", "name": "Glen Afric Country Lodge", "address": " 144 R512 Broederstroom, Hartbeespoort, 0240, South Africa", "days": 1, "lat": "-25.8135641", "lng":" 27.869428517", "activities": "Accommodation", "type": "Lodge"},
    {"date": "31-08-2019", "name": "Protea Hotel by Marriott Roodepoort", "address": "Corner Of 14th Avenue & Hendrik Potgieter Street, Weltevredenpark, Johannesburg, 1739, South Africa", "days": 13, "lat": "-26.1486465", "lng": "27.922543617", "activities": "Accommodation", "type": "Hotel"},
    {"date": "31-08-2019", "name": "Neighborgoods Market", "address": "73 Juta St, Johannesburg, 2000, South Africa", "days": 1, "lat": "-26.1940598", "lng": "28.03288317", "activities": "Shopping", "type": "Markets"},
    {"date": "01-09-2019", "name": "Rosebank Sunday Market", "address": "50 Bath Ave, Rosebank, Johannesburg, 2196, South Africa", "days": 1, "lat": "-26.1459165", "lng": "28.038771117", "activities": "Shopping", "type": "Markets"},
    {"date": "02-09-2019", "name": "Soweto", "address": "South Africa", "days": 1, "lat": "-26.2438785", "lng": "27.768230212", "activities": "Sight Seeing", "type": "Cities"},
    {"date": "03-09-2019", "name": "Lion and Safari Park", "address": "R512 Pelindaba Rd, Hartbeespoort, Broederstroom, 0240, South Africa", "days": 1, "lat":" -25.8324043", "lng": "27.88659517", "activities": "Safari", "type": "Lions"},
    {"date": "04-09-2019", "name": "De Wildt Cheetah Sanctuary", "address": "R513, Brits, 0251, South Africa", "days": 1, "lat": "-25.6736889", "lng": "27.921508817", "activities": "Safari", "type": "Cheetahs"},
    {"date": "04-09-2019", "name": "Zulu Nyala Country Manor", "address": "270 3rd Rd, Chartwell, 2021, South Africa", "days": 1, "lat": "-25.9916381", "lng": "27.97380617", "activities": "Safari", "type": "The Big 5"},
    {"date": "06-09-2019", "name": "FNB Stadium", "address": "Soccer City Ave, Nasrec, Johannesburg, 2147, South Africa", "days": 1, "lat": "-26.2347569", "lng": "27.980466717", "activities": "Convention", "type": "JW International"},
    {"date": "09-09-2019", "name": "Walter Sisulu National Botanical Gardens", "address": "Malcolm Rd, Poortview, Roodepoort, 1724, South Africa", "days": 1, "lat": "-26.086548", "lng": "27.842650317", "activities": "Sight Seeing", "type": "Gardens"},
    {"date": "10-09-2019", "name": " Ukutula Lodge and Game Reserve", "address": "Portion 26 of the Farm Klipkop, JQ411, Brits, 0250, South Africa", "days": 1, "lat":" -25.5219364", "lng": "27.67158617", "activities": "Safari", "type": "Lions"},
    {"date": "11-09-2019", "name": "Northcliff Ridge Eco Park", "address": "2115, 5 Lucky Ave, Northcliff, Randburg, 2115, South Africa", "days": 1, "lat": "-26.1452546", "lng": "27.967363217", "activities": "Sight Seeing", "type": "Mountains"}    
]
